{
"type": "FeatureCollection",

	"features": [
		{ "type": "Feature", "properties": { 
			"name": "Lofoten, Vesterålen and Senja",
			"desc": "The sea areas off the coast of Lofoten, Vesterålen and Senja is the last area in Norway not opened for oil and gas extraction", 
			"latitude": 68.134249, 
			"longitude": 12.546387 
			}, "geometry": { "type": "Point", "coordinates": [ 12.546387, 68.134249 ] } 
		},
		{ "type": "Feature", "properties": { 
			"name": "Canadian Tar Sands",
			"desc": "Tar sand extraction in Canada is the number one contributer to the countrys greenhous gas emissions", 
			"latitude": 53.933271, 
			"longitude": -116.576504 
			}, "geometry": { "type": "Point", "coordinates": [ -116.576504, 53.933271 ] } 
		},		
		{ "type": "Feature", "properties": { 
			"name": "Phillipines Anti Coal",
			"desc": "The fight against new coal mining in the Phillipines", 
			"latitude": 10.259519, 
			"longitude": 124.167480
			}, "geometry": { "type": "Point", "coordinates": [ 124.167480, 10.259519 ] } 
		},		
		{ "type": "Feature", "properties": { 
			"name": "Yuani National Park",
			"desc": "Since 2008 local groups have been fighting to preserve the Yuani National Park against oil extraction.", 
			"latitude": -1.462396, 
			"longitude": -77.673340
			}, "geometry": { "type": "Point", "coordinates": [ -77.673340, -1.462396 ] } 
		},			
		{ "type": "Feature", "properties": { 
			"name": "Keystone XL Pipeline",
			"desc": "The Keystone XL Pipline was first proposed in 2007 by the Trans-Canada. The pipeline would open up for export of crude oil from tar sand extraction.", 
			"latitude": 48.798723, 
			"longitude": -104.304199
			}, "geometry": { "type": "Point", "coordinates": [ -104.304199, 48.798723 ] } 
		},
		{ "type": "Feature", "properties": { 
			"name": "Great Australian Bight",
			"desc": "BP is planning to drill for oil in the prestine sea areas of the Great Australia Bight.", 
			"latitude": -38.625454, 
			"longitude": 135.175781
			}, "geometry": { "type": "Point", "coordinates": [ 135.175781, -38.625454 ] } 
		},
		{ "type": "Feature", "properties": { 
			"name": "UK Fracking",
			"desc": "Local communities across the UK are fighting various fracking projects which would put local water supplies in danger, increas earthquakes and increase UK's greenhous gas emissions.", 
			"latitude": 51.556582, 
			"longitude": -0.527344
			}, "geometry": { "type": "Point", "coordinates": [ -0.527344, 51.556582 ] } 
		}		
	]
}



